[
{"coordinates":[28.96,13.66033],"name":"Al Zarnkh","class":"LL5","mass":"700","year":2001},
{"coordinates":[6.01533,45.82133],"name":"Alby sur Chéran","class":"Eucrite-mmict","mass":"252","year":2002},
{"coordinates":[32.41275,20.74575],"name":"Almahata Sitta","class":"Ureilite-an","mass":"3950","year":2008},
{"coordinates":[-97.01,31.805],"name":"Ash Creek","class":"L6","mass":"9500","year":2009},
{"coordinates":[-5.9,15.78333],"name":"Bassikounou","class":"H5","mass":"29560","year":2006},
{"coordinates":[-117.18913,40.66813],"name":"Battle Mountain","class":"L6","mass":"2900","year":2012},
{"coordinates":[-8.15,32.25],"name":"Benguerir","class":"LL6","mass":"25000","year":2004},
{"coordinates":[10.8,32.86667],"name":"Beni M'hira","class":"L6","mass":"19000","year":2001},
{"coordinates":[-7,30],"name":"Bensour","class":"LL6","mass":"45000","year":2002},
{"coordinates":[-58.32833,-31.91],"name":"Berduc","class":"L6","mass":"270","year":2008},
{"coordinates":[-105.02325,40.30583],"name":"Berthoud","class":"Eucrite-mmict","mass":"960","year":2004},
{"coordinates":[73.11528,26.50833],"name":"Bhawad","class":"LL6","mass":"678","year":2002},
{"coordinates":[-11.3715,17.71067],"name":"Boumdeid (2003)","class":"L6","mass":"190","year":2003},
{"coordinates":[-11.34133,17.17493],"name":"Boumdeid (2011)","class":"L6","mass":"3599","year":2011},
{"coordinates":[64.60035,39.77978],"name":"Bukhara","class":"CV3","mass":"5300","year":2001},
{"coordinates":[129.19,-31.35],"name":"Bunburra Rockhole","class":"Eucrite","mass":"324","year":2007},
{"coordinates":[-109.84817,52.996],"name":"Buzzard Coulee","class":"H4","mass":"41000","year":2008},
{"coordinates":[-76.51,3.405],"name":"Cali","class":"H/L4","mass":"478","year":2007},
{"coordinates":[-69.04389,-16.66444],"name":"Carancas","class":"H4-5","mass":"342","year":2007},
{"coordinates":[61.11667,54.81667],"name":"Chelyabinsk","class":"LL5","mass":"100000","year":2013},
{"coordinates":[-5.01472,23.69639],"name":"Chergach ","class":"H5","mass":"100000","year":2007},
{"coordinates":[-79.95756,-1.87089],"name":"Daule","class":"L5","mass":"6580","year":2008},
{"coordinates":[93.86667,26.68333],"name":"Dergaon","class":"H5","mass":"12500","year":2001},
{"coordinates":[81,19],"name":"Devgaon","class":"H3.8","mass":"12000","year":2001},
{"coordinates":[27.32997,37.35172],"name":"Didim","class":"H3-5","mass":"3396","year":2007},
{"coordinates":[-2.04167,14.15083],"name":"Gasseltepaoua","class":"H5","mass":"","year":2000},
{"coordinates":[-79.61667,43.2],"name":"Grimsby","class":"H5","mass":"215","year":2009},
{"coordinates":[132.38333,34.45],"name":"Hiroshima","class":"H5","mass":"414","year":2003},
{"coordinates":[31.47278,1.345],"name":"Hoima","class":"H6","mass":"167.7","year":2003},
{"coordinates":[106.63241,26.46469],"name":"Huaxi","class":"H5","mass":"1600","year":2010},
{"coordinates":[14.05217,46.42137],"name":"Jesenice","class":"L6","mass":"3667","year":2009},
{"coordinates":[70.31333,22.68],"name":"Jodiya","class":"L5","mass":"100","year":2006},
{"coordinates":[73.22329,20.33916],"name":"Kaprada","class":"L5/6","mass":"1600","year":2004},
{"coordinates":[77.58333,29.58333],"name":"Kasauli","class":"H4","mass":"16820","year":2003},
{"coordinates":[75.81333,25.14333],"name":"Kavarpura","class":"Iron, IIE-an","mass":"6800","year":2006},
{"coordinates":[29.41822,36.54194],"name":"Kemer","class":"L4","mass":"5760","year":2008},
{"coordinates":[86.70278,20.4625],"name":"Kendrapara","class":"H4-5","mass":"6669.2","year":2003},
{"coordinates":[9.8,12.76667],"name":"Kilabo","class":"LL6","mass":"19000","year":2002},
{"coordinates":[21.17633,48.76367],"name":"Košice","class":"H5","mass":"4300","year":2010},
{"coordinates":[-77.21163,38.70066],"name":"Lorton","class":"L6","mass":"329.7","year":2010},
{"coordinates":[95.78333,27.66667],"name":"Mahadevpur","class":"H4/5","mass":"70500","year":2007},
{"coordinates":[9.38333,12.83333],"name":"Maigatari-Danduma","class":"H5/6","mass":"4629","year":2004},
{"coordinates":[11.46745,54.76183],"name":"Maribo","class":"CM2","mass":"25.81","year":2009},
{"coordinates":[48.1,-14.2],"name":"Maromandia","class":"L6","mass":"6000","year":2002},
{"coordinates":[0,0],"name":"Mason Gully","class":"H5","mass":"24.54","year":2010},
{"coordinates":[-90.36556,42.9075],"name":"Mifflin","class":"L5","mass":"3584","year":2010},
{"coordinates":[18.53333,49.6],"name":"Morávka","class":"H5","mass":"633","year":2000},
{"coordinates":[10.7,59.43333],"name":"Moss","class":"CO3.6","mass":"3763","year":2006},
{"coordinates":[10.80833,47.525],"name":"Neuschwanstein","class":"EL6","mass":"6189","year":2002},
{"coordinates":[-90.10976,29.94718],"name":"New Orleans","class":"H5","mass":"19256","year":2003},
{"coordinates":[-81.36222,28.5475],"name":"Orlando","class":"Eucrite","mass":"180","year":2004},
{"coordinates":[0.08,12.9],"name":"Ouadangou","class":"L5","mass":"4440","year":2003},
{"coordinates":[-13.1,24.3],"name":"Oum Dreyga","class":"H3-5","mass":"17000","year":2003},
{"coordinates":[-87.67917,41.48472],"name":"Park Forest","class":"L5","mass":"18000","year":2003},
{"coordinates":[26.70972,45.275],"name":"Pleşcoi","class":"L5-6","mass":"6913","year":2008},
{"coordinates":[-3.51667,39.35],"name":"Puerto Lápice","class":"Eucrite-br","mass":"500","year":2007},
{"coordinates":[-119.75812,38.13742],"name":"Red Canyon Lake","class":"H5","mass":"18.41","year":2007},
{"coordinates":[13,43.66667],"name":"San Michele","class":"L6","mass":"237","year":2002},
{"coordinates":[-68.48944,-31.53556],"name":"Santa Lucia (2008)","class":"L6","mass":"4000","year":2008},
{"coordinates":[22.005,54.00883],"name":"Sołtmany","class":"L6","mass":"1066","year":2011},
{"coordinates":[78.03333,12.66667],"name":"Sulagiri","class":"LL6","mass":"110000","year":2008},
{"coordinates":[-120.90806,38.80389],"name":"Sutter's Mill","class":"C","mass":"992.5","year":2012},
{"coordinates":[-134.20139,59.70444],"name":"Tagish Lake","class":"C2-ung","mass":"10000","year":2000},
{"coordinates":[-7.015,31.16333],"name":"Tamdakht","class":"H5","mass":"100000","year":2008},
{"coordinates":[37.15028,-1.00278],"name":"Thika","class":"L6","mass":"14200","year":2011},
{"coordinates":[27.58333,-29.33333],"name":"Thuathe","class":"H4/5","mass":"45300","year":2002},
{"coordinates":[-7.61123,29.48195],"name":"Tissint","class":"Martian (shergottite)","mass":"7000","year":2011},
{"coordinates":[-41.73356,-20.85001],"name":"Varre-Sai","class":"L5","mass":"2500","year":2010},
{"coordinates":[-4.66667,42.8],"name":"Villalbeto de la Peña","class":"L6","mass":"3500","year":2004},
{"coordinates":[21.78713,32.79732],"name":"Werdama","class":"H5","mass":"4000","year":2006},
{"coordinates":[-110.43418,31.96185],"name":"Whetstone Mountains","class":"H5","mass":"2138.7399999999998","year":2009},
{"coordinates":[45.17,13.71111],"name":"Yafa","class":"H5","mass":"5700","year":2000},
{"coordinates":[48.95937,22.72192],"name":"Abar al' Uj 001","class":"H3.8","mass":"194.34","year":2008},
{"coordinates":[4.06117,27.5455],"name":"Acfer 321","class":"H5","mass":"157","year":2001},
{"coordinates":[4.093,27.55917],"name":"Acfer 322","class":"L5","mass":"25","year":2001},
{"coordinates":[3.8795,27.503],"name":"Acfer 323","class":"LL5","mass":"117","year":2001},
{"coordinates":[-10.15367,22.9935],"name":"Adam Talha","class":"LL3.2","mass":"259.3","year":2005},
{"coordinates":[9,20.5],"name":"Adrar Bous","class":"EL5","mass":"360","year":2001},
{"coordinates":[9.35545,19.64008],"name":"Adrar Chiriet","class":"L6","mass":"926","year":2003},
{"coordinates":[10.4941,18.61042],"name":"Adrar Madet 002","class":"LL3","mass":"2200","year":2002},
{"coordinates":[10.03503,17.67987],"name":"Adrar Yaouelt","class":"H5","mass":"2730","year":2002},
{"coordinates":[-5.51528,31.98457],"name":"Agoudal","class":"Iron, IIAB","mass":"100000","year":2000},
{"coordinates":[-4.9,30.55],"name":"Agoult","class":"Eucrite","mass":"82","year":2000},
{"coordinates":[4.35,27.4],"name":"Aguemour 017","class":"L6","mass":"1000","year":2001},
{"coordinates":[28.9698,30.70952],"name":"Al Alamayn","class":"H5","mass":"13.31","year":2005},
{"coordinates":[-12.5,27.5],"name":"Al Haggounia 001","class":"Aubrite","mass":"30000","year":2006},
{"coordinates":[57.18833,19.42],"name":"Al Huqf 001","class":"L4","mass":"41.5","year":2000},
{"coordinates":[-108.9038,32.306],"name":"Alkali Flat","class":"L5","mass":"28","year":2011},
{"coordinates":[0,0],"name":"Allan Hills 03541","class":"H5","mass":"1053.5","year":2003},
{"coordinates":[0,0],"name":"Allan Hills 03542","class":"L6","mass":"20.399999999999999","year":2003},
{"coordinates":[159.45252,-76.76098],"name":"Allan Hills 99101","class":"LL3","mass":"103.4","year":2000},
{"coordinates":[-2.95797,32.73458],"name":"Anoual","class":"Lunar","mass":"5.92","year":2006},
{"coordinates":[-118.54465,40.90183],"name":"Antelope","class":"H4","mass":"754","year":2012},
{"coordinates":[-106.56028,32.00584],"name":"Anthony Gap","class":"L6","mass":"347.36","year":2011},
{"coordinates":[-4.06667,31.66667],"name":"Aoufous","class":"Eucrite-mmict","mass":"195","year":2000},
{"coordinates":[74.44,29.06],"name":"Ararki","class":"L5","mass":"4460","year":2001},
{"coordinates":[-109.58517,38.68867],"name":"Arches","class":"L5","mass":"534","year":2001},
{"coordinates":[7.34225,18.673],"name":"Arlit","class":"H5","mass":"20.100000000000001","year":2002},
{"coordinates":[14.29233,29.3945],"name":"Ashuwairif 005","class":"H4","mass":"335","year":2010},
{"coordinates":[5.91667,19.26667],"name":"Assamakka","class":"Iron, IVA-an","mass":"4400","year":2002},
{"coordinates":[-114.16705,34.38063],"name":"Aubrey Hills","class":"H6","mass":"560.79999999999995","year":2010},
{"coordinates":[53.99032,17.75793],"name":"Aybut 001","class":"H6","mass":"442.26","year":2002},
{"coordinates":[113.28333,46.7],"name":"Baruun Urt","class":"H5","mass":"25.9","year":2002},
{"coordinates":[35.2995,55.54867],"name":"Batyushkovo","class":"L5","mass":"4620","year":2007},
{"coordinates":[14.63333,49.76667],"name":"Benešov (a)","class":"LL3.5","mass":"9.720000000000001","year":2011},
{"coordinates":[14.63333,49.76667],"name":"Benešov (b)","class":"H5","mass":"1.54","year":2011},
{"coordinates":[-95.52937,50.43845],"name":"Bernic Lake","class":"Iron, IAB-MG","mass":"9162","year":2002},
{"coordinates":[55.23497,45.4633],"name":"Beyneu","class":"H6","mass":"45","year":2001},
{"coordinates":[-119.18352,40.86717],"name":"Black Rock 001","class":"L6","mass":"152","year":2003},
{"coordinates":[-69.5,-25],"name":"Blanca Estela","class":"Iron, IAB complex","mass":"15600","year":2002},
{"coordinates":[-115.51833,38.66167],"name":"Blue Eagle","class":"R3-6","mass":"70","year":2006},
{"coordinates":[-114.19167,35.8675],"name":"Bluebird","class":"L6","mass":"3650","year":2002},
{"coordinates":[-99.99306,32.24611],"name":"Buffalo Gap","class":"Iron, IAB-ung","mass":"9300","year":2003},
{"coordinates":[-98.72383,38.84833],"name":"Bunker Hill","class":"L6","mass":"28000","year":2002},
{"coordinates":[-106.88333,39.86667],"name":"Burns","class":"Iron, IIIAB","mass":"18400","year":2003},
{"coordinates":[-70.03333,-24.266],"name":"Caleta el Cobre 001","class":"H6","mass":"9","year":2010},
{"coordinates":[126.61667,-30.31667],"name":"Camel Donga 053","class":"LL5-6","mass":"579","year":2008},
{"coordinates":[-111.78558,33.88098],"name":"Camp Creek","class":"H4","mass":"3016","year":2009},
{"coordinates":[10.2056,20.12593],"name":"Capot Rey","class":"H5","mass":"38000","year":2004},
{"coordinates":[-114.76718,32.91745],"name":"Cargo Muchacho Mountains","class":"CO3","mass":"2860","year":2000},
{"coordinates":[11.35556,44.495],"name":"Castenaso","class":"L5","mass":"120","year":2003},
{"coordinates":[-69.71667,-25.23333],"name":"Catalina 002","class":"LL3","mass":"61.1","year":2010},
{"coordinates":[94.6,51.53333],"name":"Cheder","class":"Iron, IID","mass":"5390","year":2003},
{"coordinates":[-116.19633,36.00217],"name":"Chicago Valley","class":"L5","mass":"26","year":2004},
{"coordinates":[-114.86667,33.01222],"name":"Chocolate Mountains","class":"Ureilite","mass":"699","year":2004},
{"coordinates":[-95.66667,37.01667],"name":"Coffeyville","class":"H5","mass":"35900","year":2006},
{"coordinates":[-94.68333,40.26667],"name":"Conception Junction","class":"Pallasite, PMG-an","mass":"17000","year":2006},
{"coordinates":[-1.31667,44.08333],"name":"Contis-Plage","class":"H5","mass":"44","year":2000},
{"coordinates":[130.90386,-30.91378],"name":"Cook 012","class":"H4","mass":"6.6","year":2010},
{"coordinates":[130.90858,-30.94775],"name":"Cook 013","class":"H6","mass":"46.8","year":2010},
{"coordinates":[-105.7015,38.46483],"name":"Cotopaxi","class":"Iron, IAB-ung","mass":"243","year":2000},
{"coordinates":[-116.7502,35.06917],"name":"Coyote Dry Lake 129","class":"H5","mass":"140","year":2000},
{"coordinates":[-116.7494,35.06785],"name":"Coyote Dry Lake 130","class":"H4","mass":"6.1","year":2000},
{"coordinates":[0,0],"name":"D'Angelo Bluff 06001","class":"L6","mass":"26.7","year":2006},
{"coordinates":[0,0],"name":"D'Angelo Bluff 06002","class":"LL6","mass":"4.4","year":2006},
{"coordinates":[0,0],"name":"D'Angelo Bluff 06003","class":"L6","mass":"12.5","year":2006},
{"coordinates":[0,0],"name":"D'Angelo Bluff 06004","class":"CM2","mass":"47.4","year":2006},
{"coordinates":[16.38767,27.04133],"name":"Dar al Gani 1010","class":"Ureilite","mass":"119","year":2000},
{"coordinates":[16.9575,27.92472],"name":"Dar al Gani 1020","class":"H5","mass":"55.8","year":2000},
{"coordinates":[16.18167,27.01083],"name":"Dar al Gani 1021","class":"H5","mass":"101.1","year":2000},
{"coordinates":[16.25,27.08333],"name":"Dar al Gani 1022","class":"LL7","mass":"33.6","year":2001},
{"coordinates":[16.06633,27.07567],"name":"Dar al Gani 1028","class":"CO3","mass":"131","year":2000},
{"coordinates":[16.684,27.919],"name":"Dar al Gani 1029","class":"LL5","mass":"68","year":2000},
{"coordinates":[16.38133,27.035],"name":"Dar al Gani 1032","class":"H3/4","mass":"321","year":2000},
{"coordinates":[0,0],"name":"LaPaz Icefield 02270","class":"LL6","mass":"14.75","year":2002},
{"coordinates":[-70,-86.36667],"name":"LaPaz Icefield 02271","class":"LL5","mass":"9.17","year":2002},
{"coordinates":[0,0],"name":"LaPaz Icefield 02272","class":"LL6","mass":"39.590000000000003","year":2002},
{"coordinates":[0,0],"name":"LaPaz Icefield 03576","class":"LL4","mass":"561","year":2003},
{"coordinates":[0,0],"name":"LaPaz Icefield 03577","class":"LL6","mass":"556.20000000000005","year":2003},
{"coordinates":[0,0],"name":"LaPaz Icefield 03578","class":"L5","mass":"471.6","year":2003},
{"coordinates":[0,0],"name":"LaPaz Icefield 03579","class":"LL4","mass":"411.8","year":2003},
{"coordinates":[0,0],"name":"LaPaz Icefield 03580","class":"LL6","mass":"582.9","year":2003},
{"coordinates":[0,0],"name":"LaPaz Icefield 03581","class":"LL4","mass":"541","year":2003},
{"coordinates":[0,0],"name":"LaPaz Icefield 03582","class":"LL5","mass":"408.6","year":2003},
{"coordinates":[0,0],"name":"LaPaz Icefield 03583","class":"LL5","mass":"226.7","year":2003},
{"coordinates":[0,0],"name":"LaPaz Icefield 03584","class":"LL5","mass":"311.39999999999998","year":2003},
{"coordinates":[0,0],"name":"LaPaz Icefield 03585","class":"L5","mass":"289","year":2003},
{"coordinates":[0,0],"name":"LaPaz Icefield 03586","class":"L5","mass":"343.9","year":2003},
{"coordinates":[0,0],"name":"LaPaz Icefield 03587","class":"Ureilite","mass":"130.24","year":2003},
{"coordinates":[0,0],"name":"LaPaz Icefield 03588","class":"L5","mass":"209.6","year":2003},
{"coordinates":[0,0],"name":"LaPaz Icefield 03589","class":"H4","mass":"232.7","year":2003},
{"coordinates":[0,0],"name":"LaPaz Icefield 03590","class":"LL5","mass":"342.6","year":2003},
{"coordinates":[0,0],"name":"Larkman Nunatak 06804","class":"H6","mass":"130","year":2006},
{"coordinates":[0,0],"name":"Larkman Nunatak 06805","class":"L6","mass":"337.6","year":2006},
{"coordinates":[0,0],"name":"Larkman Nunatak 06806","class":"L5","mass":"454.3","year":2006},
{"coordinates":[0,0],"name":"Larkman Nunatak 06807","class":"H5","mass":"250","year":2006},
{"coordinates":[0,0],"name":"Larkman Nunatak 06808","class":"L5","mass":"237.9","year":2006},
{"coordinates":[0,0],"name":"Larkman Nunatak 06809","class":"L5","mass":"371.2","year":2006},
{"coordinates":[-116.94277,34.48975],"name":"Lucerne Valley 041","class":"L6","mass":"0.84","year":2004},
{"coordinates":[-116.9637,34.48595],"name":"Lucerne Valley 042","class":"L6","mass":"2.17","year":2004},
{"coordinates":[-116.96255,34.48457],"name":"Lucerne Valley 043","class":"L4","mass":"1.75","year":2004},
{"coordinates":[-116.96083,34.48413],"name":"Lucerne Valley 044","class":"L6","mass":"106.22","year":2004},
{"coordinates":[-116.96512,34.487],"name":"Lucerne Valley 045","class":"L6","mass":"38.56","year":2004},
{"coordinates":[-116.9735,34.48742],"name":"Lucerne Valley 046","class":"L6","mass":"10.32","year":2004},
{"coordinates":[-116.9739,34.48613],"name":"Lucerne Valley 047","class":"L6","mass":"30.43","year":2004},
{"coordinates":[-116.95833,34.48667],"name":"Lucerne Valley 048","class":"H4","mass":"2.29","year":2004},
{"coordinates":[-116.96107,34.48472],"name":"Lucerne Valley 049","class":"L6","mass":"9.199999999999999","year":2004},
{"coordinates":[-116.95833,34.48728],"name":"Lucerne Valley 050","class":"H4","mass":"6.85","year":2005},
{"coordinates":[-116.95333,34.525],"name":"Lucerne Valley 051","class":"L5","mass":"6","year":2003},
{"coordinates":[-116.97275,34.486],"name":"Lucerne Valley 057","class":"L6","mass":"13.15","year":2005},
{"coordinates":[0,0],"name":"MacAlpine Hills 02573","class":"L4","mass":"5.89","year":2002},
{"coordinates":[0,0],"name":"MacAlpine Hills 02574","class":"L5","mass":"10.5","year":2002},
{"coordinates":[0,0],"name":"MacAlpine Hills 02575","class":"L5","mass":"2.79","year":2002},
{"coordinates":[0,0],"name":"MacAlpine Hills 02576","class":"L5","mass":"12.92","year":2002},
{"coordinates":[155.75,-79.68333],"name":"Meteorite Hills 00612","class":"L5","mass":"110.51","year":2000},
{"coordinates":[155.75,-79.68333],"name":"Meteorite Hills 00613","class":"H6","mass":"53.37","year":2000},
{"coordinates":[155.75,-79.68333],"name":"Meteorite Hills 00614","class":"L5","mass":"81.89","year":2000},
{"coordinates":[155.75,-79.68333],"name":"Meteorite Hills 00615","class":"H6","mass":"166.85","year":2000},
{"coordinates":[155.75,-79.68333],"name":"Meteorite Hills 00616","class":"LL6","mass":"97.51","year":2000},
{"coordinates":[0,0],"name":"Miller Range 07037","class":"L6","mass":"362.4","year":2007},
{"coordinates":[0,0],"name":"Miller Range 07038","class":"L6","mass":"431.9","year":2007},
{"coordinates":[0,0],"name":"Miller Range 07039","class":"L5","mass":"258.89999999999998","year":2007},
{"coordinates":[0,0],"name":"Miller Range 07040","class":"H5","mass":"413","year":2007},
{"coordinates":[0,0],"name":"Miller Range 07041","class":"L6","mass":"257.3","year":2007},
{"coordinates":[0,0],"name":"Miller Range 07042","class":"H5","mass":"184.8","year":2007},
{"coordinates":[0,0],"name":"Northwest Africa 2023","class":"L4/5","mass":"14400","year":2002},
{"coordinates":[0,0],"name":"Northwest Africa 1391","class":"L6","mass":"1091","year":2000},
{"coordinates":[0,0],"name":"Northwest Africa 1392","class":"H5","mass":"64","year":2000},
{"coordinates":[0,0],"name":"Northwest Africa 1395","class":"H3.8","mass":"734","year":2000},
{"coordinates":[0,0],"name":"Northwest Africa 1397","class":"L/LL6","mass":"40000","year":2000},
{"coordinates":[0,0],"name":"Northwest Africa 1406","class":"LL3","mass":"682","year":2001},
{"coordinates":[0,0],"name":"Northwest Africa 141","class":"H5","mass":"425","year":2000},
{"coordinates":[0,0],"name":"Northwest Africa 1429","class":"L3","mass":"62.6","year":2001},
{"coordinates":[0,0],"name":"Roberts Massif 04297","class":"L5","mass":"77.5","year":2004},
{"coordinates":[0,0],"name":"Roberts Massif 04298","class":"LL5","mass":"44","year":2004},
{"coordinates":[0,0],"name":"Roberts Massif 04299","class":"Iron, ungrouped","mass":"55.2","year":2004},
{"coordinates":[0,0],"name":"Roberts Massif 04300","class":"L5","mass":"3.1","year":2004},
{"coordinates":[0,0],"name":"Roberts Massif 04301","class":"L5","mass":"9.1","year":2004},
{"coordinates":[0,0],"name":"Roberts Massif 04302","class":"CV3","mass":"11.6","year":2004},
{"coordinates":[-69.88583,-25.4465],"name":"San Juan 060","class":"H5","mass":"74","year":2010},
{"coordinates":[-69.86083,-25.44067],"name":"San Juan 061","class":"L5","mass":"1.3","year":2010},
{"coordinates":[-69.69017,-25.42517],"name":"San Juan 062","class":"H5","mass":"1125","year":2010},
{"coordinates":[-69.78333,-25.58333],"name":"San Juan 063","class":"H5","mass":"3384","year":2010},
{"coordinates":[-69.78333,-25.58333],"name":"San Juan 064","class":"L6","mass":"656","year":2010},
{"coordinates":[0,0],"name":"Sandford Cliffs 03463","class":"LL5","mass":"464.7","year":2002},
{"coordinates":[0,0],"name":"Sandford Cliffs 03464","class":"L5","mass":"919.1","year":2003},
{"coordinates":[0,0],"name":"Sandford Cliffs 03465","class":"L5","mass":"596.5","year":2003},
{"coordinates":[0,0],"name":"Sandford Cliffs 03466","class":"L5","mass":"553.4","year":2003},
{"coordinates":[56.67167,20.53],"name":"Sayh al Uhaymir 056","class":"L6","mass":"278","year":2000},
{"coordinates":[57.32667,21.06167],"name":"Sayh al Uhaymir 057","class":"H6","mass":"88","year":2001},
{"coordinates":[56.65667,20.45667],"name":"Sayh al Uhaymir 058","class":"L5","mass":"35","year":2001},
{"coordinates":[56.67833,20.54167],"name":"Sayh al Uhaymir 059","class":"H4","mass":"62","year":2001},
{"coordinates":[-114.45585,35.16993],"name":"Thumb Butte","class":"H3.8","mass":"105","year":2008},
{"coordinates":[54.35,17.58333],"name":"Thumrayt 001","class":"Pallasite, PMG","mass":"2480","year":2006},
{"coordinates":[54.06633,17.9695],"name":"Thumrayt 002","class":"L3.5","mass":"3072","year":2007},
{"coordinates":[10.21017,30.74819],"name":"Tieret 001","class":"H6","mass":"602","year":2009},
{"coordinates":[10.24557,30.79576],"name":"Tieret 002","class":"L6","mass":"23.5","year":2009},
{"coordinates":[10.2503,30.8193],"name":"Tieret 003","class":"H6","mass":"17.100000000000001","year":2009},
{"coordinates":[10.04587,30.96791],"name":"Tieret 004","class":"H5","mass":"10.6","year":2009},
{"coordinates":[10.04677,30.96759],"name":"Tieret 005","class":"L6","mass":"18.3","year":2009},
{"coordinates":[10.05499,30.97153],"name":"Tieret 006","class":"L4","mass":"20.7","year":2009},
{"coordinates":[10.09026,30.97562],"name":"Tieret 007","class":"H5","mass":"11","year":2009},
{"coordinates":[10.06525,30.9337],"name":"Tieret 008","class":"L4","mass":"28","year":2010},
{"coordinates":[10.06945,30.93472],"name":"Tieret 009","class":"H5/6","mass":"9","year":2010},
{"coordinates":[10.00652,30.98022],"name":"Tieret 010","class":"H3","mass":"5150","year":2010},
{"coordinates":[10.06935,30.93417],"name":"Tieret 011","class":"H5/6","mass":"13.4","year":2010},
{"coordinates":[10.06943,30.93397],"name":"Tieret 012","class":"L4","mass":"0.41","year":2010},
{"coordinates":[10.05145,30.9308],"name":"Tieret 013","class":"L4","mass":"3.7","year":2010},
{"coordinates":[-10.5,26.5],"name":"Tifariti","class":"L6","mass":"5.4","year":2002},
{"coordinates":[11.587,20.20117],"name":"Tiffa 007","class":"H5","mass":"9250","year":2001},
{"coordinates":[11.85,20.35833],"name":"Tiffa 008","class":"CO3","mass":"1149","year":2001},
{"coordinates":[-101.097,45.425],"name":"Timber Lake","class":"H3","mass":"8660","year":2011},
{"coordinates":[34.91667,29.75],"name":"Timna","class":"H5","mass":"40","year":2002},
{"coordinates":[9.1002,32.7605],"name":"Tin as Sawwan","class":"L4-5","mass":"1684","year":2011},
{"coordinates":[-0.51667,27.63533],"name":"Touat 001","class":"L6","mass":"2650","year":2002},
{"coordinates":[-0.51667,27.46667],"name":"Touat 002","class":"H5","mass":"5150","year":2002},
{"coordinates":[-7.7493,29.65225],"name":"Toufassour","class":"Mesosiderite","mass":"73300","year":2007},
{"coordinates":[-112.55,33.91667],"name":"Trilby Wash","class":"L4","mass":"846","year":2005},
{"coordinates":[-113.38167,38.99861],"name":"Tule Valley","class":"L6","mass":"17.690000000000001","year":2001},
{"coordinates":[-113.37833,38.94306],"name":"Tule Valley Hardpan 001","class":"L5","mass":"5.1","year":2009},
{"coordinates":[-113.38222,38.945],"name":"Tule Valley Hardpan 002","class":"H5","mass":"1.32","year":2009},
{"coordinates":[-117.65472,39.63611],"name":"Tungsten Mountain 001","class":"H4","mass":"31.73","year":2000},
{"coordinates":[-117.60432,39.67357],"name":"Tungsten Mountain 002","class":"H6","mass":"11.3","year":2001},
{"coordinates":[55.17444,22.89308],"name":"United Arab Emirates 025","class":"L6","mass":"148","year":2009},
{"coordinates":[55.18142,22.89183],"name":"United Arab Emirates 026","class":"L6","mass":"97","year":2009},
{"coordinates":[55.1705,22.89406],"name":"United Arab Emirates 027","class":"L6","mass":"107","year":2009},
{"coordinates":[55.17989,22.89092],"name":"United Arab Emirates 028","class":"L6","mass":"39","year":2009},
{"coordinates":[46.01667,30.9],"name":"Ur","class":"Iron","mass":"","year":2501},
{"coordinates":[52.97805,18.44432],"name":"Uruq al Hadd 001","class":"LL5","mass":"2335.64","year":2003},
{"coordinates":[36.8001,50.11112],"name":"Verkhnyi Saltov","class":"Iron, IIIAB","mass":"9530","year":2001},
{"coordinates":[-62.85,-41.06667],"name":"Viedma","class":"L5","mass":"6900","year":2003},
{"coordinates":[-40.83611,-14.83861],"name":"Vitoria da Conquista","class":"Iron, IVA","mass":"10500","year":2007},
{"coordinates":[-114.25052,34.78698],"name":"Warm Springs Wilderness","class":"H4-6","mass":"156.9","year":2003},
{"coordinates":[131.55,-30.48333],"name":"Watson 003","class":"H4","mass":"2.6","year":2008},
{"coordinates":[131.55,-30.48333],"name":"Watson 004","class":"H4","mass":"1.3","year":2008},
{"coordinates":[131.7,-30.5],"name":"Watson 005","class":"H5","mass":"1.6","year":2009},
{"coordinates":[131.7,-30.5],"name":"Watson 006","class":"L5","mass":"53","year":2009},
{"coordinates":[131.68333,-30.48333],"name":"Watson 007","class":"EL3","mass":"19.5","year":2009},
{"coordinates":[131.68333,-30.5],"name":"Watson 008","class":"H5","mass":"1.5","year":2009},
{"coordinates":[131.68333,-30.5],"name":"Watson 009","class":"H5","mass":"1","year":2009},
{"coordinates":[131.71667,-30.5],"name":"Watson 010","class":"H5","mass":"19.3","year":2009},
{"coordinates":[131.5,-30.51667],"name":"Watson 011","class":"H4","mass":"4.1","year":2009},
{"coordinates":[131.5,-30.56667],"name":"Watson 012","class":"H7","mass":"103.1","year":2009},
{"coordinates":[131.50164,-30.575],"name":"Watson 013","class":"H3","mass":"47.1","year":2010},
{"coordinates":[99.81667,40.26667],"name":"Weikengquan","class":"H5","mass":"665","year":2006},
{"coordinates":[-115.5975,53.99917],"name":"Whitecourt","class":"Iron, IIIAB","mass":"5372","year":2007},
{"coordinates":[-109.7895,32.18167],"name":"Willcox Playa 002","class":"L6","mass":"12","year":2001},
{"coordinates":[-109.82423,32.14202],"name":"Willcox Playa 004","class":"L6","mass":"19.899999999999999","year":2004},
{"coordinates":[-109.88412,32.0939],"name":"Willcox Playa 005","class":"H5","mass":"278.39999999999998","year":2004},
{"coordinates":[-109.89265,32.11288],"name":"Willcox Playa 006","class":"H6","mass":"3.1","year":2004},
{"coordinates":[-109.84563,32.18843],"name":"Willcox Playa 007","class":"L6","mass":"62.4","year":2004},
{"coordinates":[-109.8455,32.07667],"name":"Willcox Playa 009","class":"Mesosiderite","mass":"160","year":2009},
{"coordinates":[-115.34388,35.37358],"name":"Willow Wash","class":"H3.5","mass":"552","year":2006},
{"coordinates":[118.45561,-28.09697],"name":"Windimurra","class":"H4/5","mass":"30000","year":2004},
{"coordinates":[-114.66667,32.95],"name":"Winterhaven","class":"Howardite","mass":"2100","year":2002},
{"coordinates":[-79.06667,45],"name":"Wood Lake","class":"H4","mass":"350","year":2003},
{"coordinates":[120.48333,36.3],"name":"Xifu","class":"Iron, IAB complex","mass":"30000","year":2004},
{"coordinates":[48.73742,23.34775],"name":"Yabrin 001","class":"LL5","mass":"65.19","year":2008},
{"coordinates":[48.72245,23.35717],"name":"Yabrin 002","class":"H5","mass":"46.32","year":2008},
{"coordinates":[48.62988,23.31522],"name":"Yabrin 003","class":"Acapulcoite","mass":"21.047999999999998","year":2008},
{"coordinates":[0,0],"name":"Yamato 000027","class":"Martian (shergottite)","mass":"9.68","year":2000},
{"coordinates":[0,0],"name":"Yamato 000047","class":"Martian (shergottite)","mass":"5.34","year":2000},
{"coordinates":[0,0],"name":"Yamato 000097","class":"Martian (shergottite)","mass":"24.48","year":2000},
{"coordinates":[35.66667,-71.5],"name":"Yamato 000593","class":"Martian (nakhlite)","mass":"13713","year":2000},
{"coordinates":[35.66667,-71.5],"name":"Yamato 000749","class":"Martian (nakhlite)","mass":"1283","year":2000},
{"coordinates":[35.66667,-71.5],"name":"Yamato 000802","class":"Martian (nakhlite)","mass":"22","year":2000},
{"coordinates":[0,0],"name":"Yamato 002875","class":"Diogenite","mass":"10667","year":2000},
{"coordinates":[135.64985,-32.08287],"name":"Yaringie Hill","class":"H5","mass":"5750","year":2006},
{"coordinates":[131.46667,-30.5],"name":"Yarle Lakes 004","class":"CK4","mass":"4.6","year":2009},
{"coordinates":[-114.42715,39.55801],"name":"Yelland 001","class":"L6","mass":"4.5","year":2011},
{"coordinates":[-114.40783,39.35067],"name":"Yelland Dry Lake","class":"H4","mass":"76000","year":2007},
{"coordinates":[118.01,26.06],"name":"Youxi","class":"Mesosiderite-C","mass":"218000","year":2006},
{"coordinates":[-114.2761,34.8197],"name":"Yucca 015","class":"H-metal","mass":"3","year":2011},
{"coordinates":[-114.27763,34.82658],"name":"Yucca 016","class":"H5","mass":"25.9","year":2011},
{"coordinates":[-114.27735,34.81923],"name":"Yucca 017","class":"H5","mass":"200","year":2011},
{"coordinates":[4.63333,32.15833],"name":"Zelfana","class":"L5","mass":"1058","year":2002},
{"coordinates":[41.5046,49.78917],"name":"Zubkovsky","class":"L6","mass":"2167","year":2003}
]